[
  {
    "id": 3025428,
    "name": "Utanjati",
    "region": "Jakarta Raya",
    "country": "Indonesia",
    "lat": -6.14,
    "lon": 106.71,
    "url": "utanjati-jakarta-raya-indonesia"
  },
  {
    "id": 2872911,
    "name": "Tebaci",
    "region": "Indonesia (general) ",
    "country": "Indonesia",
    "lat": -6.14,
    "lon": 106.71,
    "url": "tebaci-indonesia-general-indonesia"
  },
  {
    "id": 2875182,
    "name": "Langgar",
    "region": "Indonesia (general) ",
    "country": "Indonesia",
    "lat": -6.16,
    "lon": 106.71,
    "url": "langgar-indonesia-general-indonesia"
  },
  {
    "id": 2877332,
    "name": "Kalideres Dua",
    "region": "Indonesia (general) ",
    "country": "Indonesia",
    "lat": -6.15,
    "lon": 106.71,
    "url": "kalideres-dua-indonesia-general-indonesia"
  },
  {
    "id": 2877333,
    "name": "Tjengkareng Dua",
    "region": "Indonesia (general) ",
    "country": "Indonesia",
    "lat": -6.15,
    "lon": 106.72,
    "url": "tjengkareng-dua-indonesia-general-indonesia"
  },
  {
    "id": 3025827,
    "name": "Cengkareng",
    "region": "Jakarta Raya",
    "country": "Indonesia",
    "lat": -6.15,
    "lon": 106.72,
    "url": "cengkareng-jakarta-raya-indonesia"
  },
  {
    "id": 3026035,
    "name": "Kampungduri",
    "region": "Jakarta Raya",
    "country": "Indonesia",
    "lat": -6.16,
    "lon": 106.72,
    "url": "kampungduri-jakarta-raya-indonesia"
  },
  {
    "id": 2872532,
    "name": "Wadas",
    "region": "Indonesia (general) ",
    "country": "Indonesia",
    "lat": -6.14,
    "lon": 106.71,
    "url": "wadas-indonesia-general-indonesia"
  },
  {
    "id": 3026036,
    "name": "Rawa Barat",
    "region": "Jakarta Raya",
    "country": "Indonesia",
    "lat": -6.14,
    "lon": 106.72,
    "url": "rawa-barat-jakarta-raya-indonesia"
  },
  {
    "id": 3026037,
    "name": "Tamankencana",
    "region": "Jakarta Raya",
    "country": "Indonesia",
    "lat": -6.15,
    "lon": 106.72,
    "url": "tamankencana-jakarta-raya-indonesia"
  }
]
